[
  {
    "id": "wdvx",
    "title": "WDVX Blue Plate Special",
    "description": "Free live music every weekday at noon in the heart of downtown. A Knoxville institution featuring bluegrass, folk, country, and Americana artists.",
    "location": "301 S Gay St, Knoxville",
    "category": "Live Music",
    "emoji": "\ud83c\udfb8",
    "lat": 35.9633,
    "lng": -83.9183,
    "neighborhood": "Downtown",
    "startTime": "12:00"
  },
  {
    "id": "market-sq",
    "title": "Market Square Farmers Market",
    "description": "Vibrant outdoor market with local produce, artisan goods, street food, and live music every Saturday morning.",
    "location": "Market Square, Knoxville",
    "category": "Markets & Local Shopping",
    "emoji": "\ud83e\udd6c",
    "lat": 35.966,
    "lng": -83.9185,
    "neighborhood": "Market Square",
    "startTime": "09:00"
  },
  {
    "id": "ijams",
    "title": "Ijams Nature Centre",
    "description": "Beautiful riverside nature preserve with hiking trails, rock climbing, kayak launches, and wildlife. A green oasis minutes from downtown.",
    "location": "2915 Island Home Ave, Knoxville",
    "category": "Outdoor & Nature",
    "emoji": "\ud83c\udf3f",
    "lat": 35.9415,
    "lng": -83.8868,
    "neighborhood": "South Knoxville"
  },
  {
    "id": "women-basketball",
    "title": "Lady Vols Basketball at Thompson-Boling",
    "description": "Catch the legendary Tennessee Lady Vols women's basketball team at one of the best venues in college hoops.",
    "location": "1600 Phillip Fulmer Way, Knoxville",
    "category": "Sports & Recreation",
    "emoji": "\ud83c\udfc0",
    "lat": 35.9507,
    "lng": -83.9377,
    "neighborhood": "UT Area"
  },
  {
    "id": "art-walk",
    "title": "First Friday Art Walk",
    "description": "Monthly celebration of local art, galleries, studios, and street performers. Galleries stay open late and many offer free wine.",
    "location": "Market Square & Old City, Knoxville",
    "category": "Arts & Museums",
    "emoji": "\ud83c\udfa8",
    "lat": 35.9655,
    "lng": -83.918,
    "neighborhood": "Downtown",
    "startTime": "17:00"
  },
  {
    "id": "tennessee-theatre",
    "title": "Tennessee Theatre",
    "description": "Stunning 1920s movie palace turned performing arts venue. Catch Broadway shows, films, concerts, and dance in a stunning historic setting.",
    "location": "604 S Gay St, Knoxville",
    "category": "Theater & Performance",
    "emoji": "\ud83c\udfad",
    "lat": 35.9635,
    "lng": -83.9187,
    "neighborhood": "Downtown"
  },
  {
    "id": "cotton-eyed-joe",
    "title": "Cotton Eyed Joe",
    "description": "Legendary country bar and dance hall. Line dancing, live music, and mechanical bull. The biggest honky tonk in East Tennessee.",
    "location": "11220 Outlet Dr, Knoxville",
    "category": "Dance & Social",
    "emoji": "\ud83e\udd20",
    "lat": 35.9308,
    "lng": -84.0803,
    "neighborhood": "Farragut",
    "startTime": "19:00"
  },
  {
    "id": "pilot-light",
    "title": "Pilot Light",
    "description": "Intimate DIY music venue in the Old City. Catch indie, punk, experimental, and underground acts in a no-frills space with great energy.",
    "location": "106 E Jackson Ave, Knoxville",
    "category": "Live Music",
    "emoji": "\ud83c\udfb5",
    "lat": 35.9671,
    "lng": -83.9143,
    "neighborhood": "Old City",
    "startTime": "20:00"
  },
  {
    "id": "big-ears",
    "title": "Big Ears Festival",
    "description": "World-class multi-genre music festival bringing experimental, jazz, classical, and avant-garde artists to intimate historic venues downtown.",
    "location": "Multiple Venues, Downtown Knoxville",
    "category": "Festivals & Events",
    "emoji": "\ud83d\udc42",
    "lat": 35.9648,
    "lng": -83.9186,
    "neighborhood": "Downtown",
    "startTime": "12:00"
  },
  {
    "id": "dogwood-arts",
    "title": "Dogwood Arts Festival",
    "description": "Month-long spring celebration featuring art shows, trail of dogwood blooms, live music, and community events throughout Knoxville.",
    "location": "Downtown Knoxville",
    "category": "Festivals & Events",
    "emoji": "\ud83c\udf38",
    "lat": 35.9655,
    "lng": -83.918,
    "neighborhood": "Downtown"
  },
  {
    "id": "saluto",
    "title": "Old City Jazz at Preservation Pub",
    "description": "Multi-story bar with rooftop patio featuring live music almost every night. Famous for local and touring jazz, blues, and folk acts.",
    "location": "28 Market Square, Knoxville",
    "category": "Live Music",
    "emoji": "\ud83c\udfba",
    "lat": 35.9656,
    "lng": -83.9182,
    "neighborhood": "Market Square",
    "startTime": "20:00"
  },
  {
    "id": "clingmans",
    "title": "Clingman's Dome Sunrise Hike",
    "description": "Hike to the highest point in the Smokies for a breathtaking sunrise above the clouds. Plan for a 2am departure from Knoxville.",
    "location": "Clingman's Dome Rd, GSMNP",
    "category": "Outdoor & Nature",
    "emoji": "\u26f0\ufe0f",
    "lat": 35.5629,
    "lng": -83.4985,
    "neighborhood": "Smoky Mountains"
  },
  {
    "id": "sunsphere",
    "title": "Sunsphere &amp; World's Fair Park",
    "description": "Iconic gold globe from the 1982 World's Fair with a free observation deck and sweeping city views. Surrounded by a beautiful park.",
    "location": "810 Clinch Ave, Knoxville",
    "category": "Tours & Experiences",
    "emoji": "\ud83c\udf10",
    "lat": 35.9615,
    "lng": -83.9243,
    "neighborhood": "Downtown"
  },
  {
    "id": "summer-concerts",
    "title": "Market Square Summer Concert Series",
    "description": "Free outdoor concerts every Friday evening in summer on Market Square. Local and regional acts, great food trucks, family atmosphere.",
    "location": "Market Square, Knoxville",
    "category": "Live Music",
    "emoji": "\ud83c\udfb6",
    "lat": 35.966,
    "lng": -83.9185,
    "neighborhood": "Market Square",
    "startTime": "18:00"
  },
  {
    "id": "silent-disco",
    "title": "Silent Disco at Preservation Pub",
    "description": "Put on wireless headphones and choose your channel \u2014 three DJs, one dance floor, zero speakers. Wild, hilarious, and totally addictive.",
    "location": "28 Market Square, Knoxville",
    "category": "Dance & Social",
    "emoji": "\ud83c\udfa7",
    "lat": 35.9656,
    "lng": -83.9182,
    "neighborhood": "Market Square",
    "startTime": "22:00"
  },
  {
    "id": "honky-tonk-thursday",
    "title": "Honky Tonk Thursday at International",
    "description": "$5 cover, cheap beer, and two-step lessons starting at 9pm every Thursday. The real country scene, no tourists.",
    "location": "900 N Central St, Knoxville",
    "category": "Dance & Social",
    "emoji": "\ud83e\ude97",
    "lat": 35.9839,
    "lng": -83.9367,
    "neighborhood": "North Knoxville",
    "startTime": "21:00"
  },
  {
    "id": "jazz-bistro",
    "title": "Jazz at the Mill &amp; Mine Lounge",
    "description": "Intimate jazz sessions in the lounge of the Mill &amp; Mine on select Wednesday nights. Rotating local jazz trio, craft cocktails, low-key crowd.",
    "location": "500 W Jackson Ave, Knoxville",
    "category": "Live Music",
    "emoji": "\ud83c\udfb7",
    "lat": 35.9671,
    "lng": -83.9196,
    "neighborhood": "Old City",
    "startTime": "20:00"
  },
  {
    "id": "rave-old-city",
    "title": "Underground Rave Circuit \u2014 Old City",
    "description": "Rotating underground electronic music events in warehouses and bars around the Old City. Watch local Instagram pages for location reveals 24hrs before.",
    "location": "Rotating Venues, Old City",
    "category": "Dance & Social",
    "emoji": "\ud83d\udd0a",
    "lat": 35.967,
    "lng": -83.915,
    "neighborhood": "Old City",
    "startTime": "22:00"
  },
  {
    "id": "rooftop-yoga",
    "title": "Rooftop Yoga at The Oliver Hotel",
    "description": "Sunday morning yoga on the rooftop terrace of the Oliver Hotel with city views. $15, BYOM (mat). Sign up via The Oliver website.",
    "location": "407 Union Ave, Knoxville",
    "category": "Fitness & Wellness",
    "emoji": "\ud83e\uddd8",
    "lat": 35.9649,
    "lng": -83.9196,
    "neighborhood": "Downtown",
    "startTime": "09:00"
  },
  {
    "id": "bluegrass-jam",
    "title": "Sunday Bluegrass Jam \u2014 Suttree Landing",
    "description": "Informal bluegrass jam session in the park every Sunday afternoon. Bring an instrument or just listen. BYOB, all skill levels welcome.",
    "location": "Suttree Landing Park, Knoxville",
    "category": "Live Music",
    "emoji": "\ud83e\ude95",
    "lat": 35.9497,
    "lng": -83.9105,
    "neighborhood": "South Knoxville",
    "startTime": "14:00"
  },
  {
    "id": "midnight-ramble",
    "title": "Midnight Ramble \u2014 Market Square",
    "description": "Late-night acoustic sessions that pop up randomly around Market Square at midnight on warm summer weekends. Follow @midnightrambleknox.",
    "location": "Market Square, Knoxville",
    "category": "Live Music",
    "emoji": "\ud83c\udf19",
    "lat": 35.966,
    "lng": -83.9185,
    "neighborhood": "Market Square",
    "startTime": "23:30"
  },
  {
    "id": "roller-derby",
    "title": "Appalachian Rollergirls \u2014 Roller Derby",
    "description": "East Tennessee's flat-track roller derby league hosts bouts monthly. Loud, chaotic, and incredibly fun. Very affordable, very local.",
    "location": "Knoxville Expo Center",
    "category": "Sports & Recreation",
    "emoji": "\u26f8\ufe0f",
    "lat": 35.985,
    "lng": -83.97,
    "neighborhood": "North Knoxville",
    "startTime": "18:00"
  },
  {
    "id": "secret-cinema",
    "title": "Secret Cinema Club \u2014 Old City",
    "description": "Monthly underground film screening series showing cult classics, foreign films, and experimental cinema. Location revealed 48hrs before via newsletter.",
    "location": "Rotating venue, Old City",
    "category": "Film & Cinema",
    "emoji": "\ud83c\udfac",
    "lat": 35.967,
    "lng": -83.9155,
    "neighborhood": "Old City",
    "startTime": "20:00"
  },
  {
    "id": "drum-circle",
    "title": "Full Moon Drum Circle \u2014 Sequoyah Hills",
    "description": "Community drum circle and bonfire gathering on the night of every full moon in Sequoyah Hills Park. Free, open, eclectic crowd.",
    "location": "Sequoyah Hills Park, Knoxville",
    "category": "Community & Civic",
    "emoji": "\ud83e\udd41",
    "lat": 35.9585,
    "lng": -83.9583,
    "neighborhood": "Northshore",
    "startTime": "20:00"
  }
]